[
  {
    "name": "Tsukiji Outer Market",
    "chain": "Independent",
    "address": "4 Chome Tsukiji",
    "city": "Tokyo",
    "country": "Japan",
    "phone": "+81-3-3541-9466",
    "website": "",
    "store_type": "farmers_market",
    "latitude": 35.6654,
    "longitude": 139.7707,
    "id": "688f2dfbe0abc0871b7bdedc",
    "created_date": "2025-08-03T09:38:03.265000",
    "updated_date": "2025-08-03T09:38:03.265000",
    "created_by_id": "688f2ccb192c06d06024420a",
    "created_by": "zubair_zm@hotmail.com",
    "is_sample": false
  },
  {
    "name": "La Grande Épicerie",
    "chain": "Le Bon Marché",
    "address": "38 Rue de Sèvres",
    "city": "Paris",
    "country": "France",
    "phone": "+33-1-44-39-81-00",
    "website": "https://www.lagrandeepicerie.com",
    "store_type": "specialty_store",
    "latitude": 48.8506,
    "longitude": 2.3264,
    "id": "688f2dfbe0abc0871b7bdedb",
    "created_date": "2025-08-03T09:38:03.265000",
    "updated_date": "2025-08-03T09:38:03.265000",
    "created_by_id": "688f2ccb192c06d06024420a",
    "created_by": "zubair_zm@hotmail.com",
    "is_sample": false
  },
  {
    "name": "Harrods Food Halls",
    "chain": "Harrods",
    "address": "87-135 Brompton Rd",
    "city": "London",
    "country": "United Kingdom",
    "phone": "+44-20-7730-1234",
    "website": "https://www.harrods.com",
    "store_type": "specialty_store",
    "latitude": 51.4994,
    "longitude": -0.1634,
    "id": "688f2dfbe0abc0871b7bdeda",
    "created_date": "2025-08-03T09:38:03.265000",
    "updated_date": "2025-08-03T09:38:03.265000",
    "created_by_id": "688f2ccb192c06d06024420a",
    "created_by": "zubair_zm@hotmail.com",
    "is_sample": false
  },
  {
    "name": "Eataly",
    "chain": "Eataly",
    "address": "200 5th Ave",
    "city": "New York",
    "country": "United States",
    "phone": "+1-212-229-2560",
    "website": "https://www.eataly.com",
    "store_type": "specialty_store",
    "latitude": 40.7414,
    "longitude": -73.9896,
    "id": "688f2dfbe0abc0871b7bded9",
    "created_date": "2025-08-03T09:38:03.265000",
    "updated_date": "2025-08-03T09:38:03.265000",
    "created_by_id": "688f2ccb192c06d06024420a",
    "created_by": "zubair_zm@hotmail.com",
    "is_sample": false
  },
  {
    "name": "Whole Foods Market",
    "chain": "Whole Foods",
    "address": "525 N Lamar Blvd",
    "city": "Austin",
    "country": "United States",
    "phone": null,
    "website": "https://www.wholefoodsmarket.com",
    "store_type": "supermarket",
    "latitude": 30.27,
    "longitude": -97.752,
    "id": "6891aa2fcce776cb04766943",
    "created_date": "2025-08-05T06:52:31.271000",
    "updated_date": "2025-08-05T06:52:31.271000",
    "created_by_id": "688f2ccb192c06d06024420a",
    "created_by": "zubair_zm@hotmail.com",
    "is_sample": false
  },
  {
    "name": "Tsukiji Outer Market",
    "chain": null,
    "address": "4 Chome-16-2 Tsukiji",
    "city": "Tokyo",
    "country": "Japan",
    "phone": null,
    "website": null,
    "store_type": "farmers_market",
    "latitude": 35.665,
    "longitude": 139.77,
    "id": "6891aa2fcce776cb04766941",
    "created_date": "2025-08-05T06:52:31.271000",
    "updated_date": "2025-08-05T06:52:31.271000",
    "created_by_id": "688f2ccb192c06d06024420a",
    "created_by": "zubair_zm@hotmail.com",
    "is_sample": false
  },
  {
    "name": "Borough Market",
    "chain": null,
    "address": "8 Southwark St",
    "city": "London",
    "country": "United Kingdom",
    "phone": null,
    "website": "https://boroughmarket.org.uk",
    "store_type": "farmers_market",
    "latitude": 51.505,
    "longitude": -0.091,
    "id": "6891aa2fcce776cb04766942",
    "created_date": "2025-08-05T06:52:31.271000",
    "updated_date": "2025-08-05T06:52:31.271000",
    "created_by_id": "688f2ccb192c06d06024420a",
    "created_by": "zubair_zm@hotmail.com",
    "is_sample": false
  },
  {
    "name": "Eataly NYC Flatiron",
    "chain": "Eataly",
    "address": "200 5th Ave",
    "city": "New York",
    "country": "United States",
    "phone": "+1 212-229-2560",
    "website": "https://www.eataly.com",
    "store_type": "specialty_store",
    "latitude": 40.742,
    "longitude": -73.989,
    "id": "6891aa2fcce776cb0476693f",
    "created_date": "2025-08-05T06:52:31.271000",
    "updated_date": "2025-08-05T06:52:31.271000",
    "created_by_id": "688f2ccb192c06d06024420a",
    "created_by": "zubair_zm@hotmail.com",
    "is_sample": false
  },
  {
    "name": "La Grande Épicerie de Paris",
    "chain": "Le Bon Marché",
    "address": "38 Rue de Sèvres",
    "city": "Paris",
    "country": "France",
    "phone": "+33 1 44 39 81 00",
    "website": "https://www.lagrandeepicerie.com",
    "store_type": "specialty_store",
    "latitude": 48.849,
    "longitude": 2.325,
    "id": "6891aa2fcce776cb04766940",
    "created_date": "2025-08-05T06:52:31.271000",
    "updated_date": "2025-08-05T06:52:31.271000",
    "created_by_id": "688f2ccb192c06d06024420a",
    "created_by": "zubair_zm@hotmail.com",
    "is_sample": false
  },
  {
    "name": "Albert Heijn",
    "chain": "Albert Heijn",
    "address": "Nationwide",
    "city": "Zaandam",
    "country": "Netherlands",
    "phone": null,
    "website": "https://www.ah.nl",
    "store_type": "supermarket",
    "latitude": null,
    "longitude": null,
    "id": "689246b33cde9f63295db516",
    "created_date": "2025-08-05T18:00:19.901000",
    "updated_date": "2025-08-05T18:00:19.901000",
    "created_by_id": "688f2ccb192c06d06024420a",
    "created_by": "zubair_zm@hotmail.com",
    "is_sample": false
  },
  {
    "name": "DMart",
    "chain": "Avenue Supermarts",
    "address": "Nationwide",
    "city": "Mumbai",
    "country": "India",
    "phone": null,
    "website": "https://www.dmartindia.com",
    "store_type": "supermarket",
    "latitude": null,
    "longitude": null,
    "id": "689246b33cde9f63295db50f",
    "created_date": "2025-08-05T18:00:19.901000",
    "updated_date": "2025-08-05T18:00:19.901000",
    "created_by_id": "688f2ccb192c06d06024420a",
    "created_by": "zubair_zm@hotmail.com",
    "is_sample": false
  },
  {
    "name": "ICA",
    "chain": "ICA Gruppen",
    "address": "Nationwide",
    "city": "Stockholm",
    "country": "Sweden",
    "phone": null,
    "website": "https://www.ica.se",
    "store_type": "supermarket",
    "latitude": null,
    "longitude": null,
    "id": "689246b33cde9f63295db518",
    "created_date": "2025-08-05T18:00:19.901000",
    "updated_date": "2025-08-05T18:00:19.901000",
    "created_by_id": "688f2ccb192c06d06024420a",
    "created_by": "zubair_zm@hotmail.com",
    "is_sample": false
  },
  {
    "name": "Jumbo",
    "chain": "Jumbo",
    "address": "Nationwide",
    "city": "Veghel",
    "country": "Netherlands",
    "phone": null,
    "website": "https://www.jumbo.com",
    "store_type": "supermarket",
    "latitude": null,
    "longitude": null,
    "id": "689246b33cde9f63295db517",
    "created_date": "2025-08-05T18:00:19.901000",
    "updated_date": "2025-08-05T18:00:19.901000",
    "created_by_id": "688f2ccb192c06d06024420a",
    "created_by": "zubair_zm@hotmail.com",
    "is_sample": false
  },
  {
    "name": "Kroger",
    "chain": "Kroger",
    "address": "Nationwide",
    "city": "Cincinnati",
    "country": "United States",
    "phone": null,
    "website": "https://www.kroger.com",
    "store_type": "supermarket",
    "latitude": null,
    "longitude": null,
    "id": "689246b33cde9f63295db4ef",
    "created_date": "2025-08-05T18:00:19.900000",
    "updated_date": "2025-08-05T18:00:19.900000",
    "created_by_id": "688f2ccb192c06d06024420a",
    "created_by": "zubair_zm@hotmail.com",
    "is_sample": false
  },
  {
    "name": "Edeka",
    "chain": "Edeka",
    "address": "Nationwide",
    "city": "Hamburg",
    "country": "Germany",
    "phone": null,
    "website": "https://www.edeka.de",
    "store_type": "supermarket",
    "latitude": null,
    "longitude": null,
    "id": "689246b33cde9f63295db501",
    "created_date": "2025-08-05T18:00:19.901000",
    "updated_date": "2025-08-05T18:00:19.901000",
    "created_by_id": "688f2ccb192c06d06024420a",
    "created_by": "zubair_zm@hotmail.com",
    "is_sample": false
  },
  {
    "name": "AEON",
    "chain": "AEON",
    "address": "Nationwide",
    "city": "Chiba",
    "country": "Japan",
    "phone": null,
    "website": "https://www.aeon.info/en/",
    "store_type": "supermarket",
    "latitude": null,
    "longitude": null,
    "id": "689246b33cde9f63295db50a",
    "created_date": "2025-08-05T18:00:19.901000",
    "updated_date": "2025-08-05T18:00:19.901000",
    "created_by_id": "688f2ccb192c06d06024420a",
    "created_by": "zubair_zm@hotmail.com",
    "is_sample": false
  },
  {
    "name": "BIM",
    "chain": "BIM",
    "address": "Nationwide",
    "city": "Istanbul",
    "country": "Turkey",
    "phone": null,
    "website": "https://www.bim.com.tr",
    "store_type": "supermarket",
    "latitude": null,
    "longitude": null,
    "id": "689246b33cde9f63295db51d",
    "created_date": "2025-08-05T18:00:19.901000",
    "updated_date": "2025-08-05T18:00:19.901000",
    "created_by_id": "688f2ccb192c06d06024420a",
    "created_by": "zubair_zm@hotmail.com",
    "is_sample": false
  },
  {
    "name": "Albertsons",
    "chain": "Albertsons",
    "address": "Nationwide",
    "city": "Boise",
    "country": "United States",
    "phone": null,
    "website": "https://www.albertsons.com",
    "store_type": "supermarket",
    "latitude": null,
    "longitude": null,
    "id": "689246b33cde9f63295db4f2",
    "created_date": "2025-08-05T18:00:19.900000",
    "updated_date": "2025-08-05T18:00:19.900000",
    "created_by_id": "688f2ccb192c06d06024420a",
    "created_by": "zubair_zm@hotmail.com",
    "is_sample": false
  },
  {
    "name": "Lidl",
    "chain": "Lidl",
    "address": "Nationwide",
    "city": "London",
    "country": "United Kingdom",
    "phone": null,
    "website": "https://www.lidl.co.uk",
    "store_type": "supermarket",
    "latitude": null,
    "longitude": null,
    "id": "689246b33cde9f63295db4fd",
    "created_date": "2025-08-05T18:00:19.901000",
    "updated_date": "2025-08-05T18:00:19.901000",
    "created_by_id": "688f2ccb192c06d06024420a",
    "created_by": "zubair_zm@hotmail.com",
    "is_sample": false
  },
  {
    "name": "Costco",
    "chain": "Costco",
    "address": "Nationwide",
    "city": "Issaquah",
    "country": "United States",
    "phone": null,
    "website": "https://www.costco.com",
    "store_type": "supermarket",
    "latitude": null,
    "longitude": null,
    "id": "689246b33cde9f63295db4f0",
    "created_date": "2025-08-05T18:00:19.900000",
    "updated_date": "2025-08-05T18:00:19.900000",
    "created_by_id": "688f2ccb192c06d06024420a",
    "created_by": "zubair_zm@hotmail.com",
    "is_sample": false
  },
  {
    "name": "Kaufland",
    "chain": "Kaufland",
    "address": "Nationwide",
    "city": "Neckarsulm",
    "country": "Germany",
    "phone": null,
    "website": "https://www.kaufland.de",
    "store_type": "supermarket",
    "latitude": null,
    "longitude": null,
    "id": "689246b33cde9f63295db503",
    "created_date": "2025-08-05T18:00:19.901000",
    "updated_date": "2025-08-05T18:00:19.901000",
    "created_by_id": "688f2ccb192c06d06024420a",
    "created_by": "zubair_zm@hotmail.com",
    "is_sample": false
  },
  {
    "name": "Pick n Pay",
    "chain": "Pick n Pay",
    "address": "Nationwide",
    "city": "Cape Town",
    "country": "South Africa",
    "phone": null,
    "website": "https://www.pnp.co.za",
    "store_type": "supermarket",
    "latitude": null,
    "longitude": null,
    "id": "689246b33cde9f63295db511",
    "created_date": "2025-08-05T18:00:19.901000",
    "updated_date": "2025-08-05T18:00:19.901000",
    "created_by_id": "688f2ccb192c06d06024420a",
    "created_by": "zubair_zm@hotmail.com",
    "is_sample": false
  },
  {
    "name": "Rewe",
    "chain": "Rewe",
    "address": "Nationwide",
    "city": "Cologne",
    "country": "Germany",
    "phone": null,
    "website": "https://www.rewe.de",
    "store_type": "supermarket",
    "latitude": null,
    "longitude": null,
    "id": "689246b33cde9f63295db502",
    "created_date": "2025-08-05T18:00:19.901000",
    "updated_date": "2025-08-05T18:00:19.901000",
    "created_by_id": "688f2ccb192c06d06024420a",
    "created_by": "zubair_zm@hotmail.com",
    "is_sample": false
  },
  {
    "name": "Coles",
    "chain": "Coles",
    "address": "Nationwide",
    "city": "Melbourne",
    "country": "Australia",
    "phone": null,
    "website": "https://www.coles.com.au",
    "store_type": "supermarket",
    "latitude": null,
    "longitude": null,
    "id": "689246b33cde9f63295db505",
    "created_date": "2025-08-05T18:00:19.901000",
    "updated_date": "2025-08-05T18:00:19.901000",
    "created_by_id": "688f2ccb192c06d06024420a",
    "created_by": "zubair_zm@hotmail.com",
    "is_sample": false
  },
  {
    "name": "Auchan",
    "chain": "Auchan",
    "address": "Nationwide",
    "city": "Lille",
    "country": "France",
    "phone": null,
    "website": "https://www.auchan.fr",
    "store_type": "supermarket",
    "latitude": null,
    "longitude": null,
    "id": "689246b33cde9f63295db4ff",
    "created_date": "2025-08-05T18:00:19.901000",
    "updated_date": "2025-08-05T18:00:19.901000",
    "created_by_id": "688f2ccb192c06d06024420a",
    "created_by": "zubair_zm@hotmail.com",
    "is_sample": false
  },
  {
    "name": "Whole Foods Market",
    "chain": "Whole Foods Market",
    "address": "Nationwide",
    "city": "Austin",
    "country": "United States",
    "phone": null,
    "website": "https://www.wholefoodsmarket.com",
    "store_type": "specialty_store",
    "latitude": null,
    "longitude": null,
    "id": "689246b33cde9f63295db4f4",
    "created_date": "2025-08-05T18:00:19.900000",
    "updated_date": "2025-08-05T18:00:19.900000",
    "created_by_id": "688f2ccb192c06d06024420a",
    "created_by": "zubair_zm@hotmail.com",
    "is_sample": false
  },
  {
    "name": "Emart",
    "chain": "Emart",
    "address": "Nationwide",
    "city": "Seoul",
    "country": "South Korea",
    "phone": null,
    "website": "https://store.emart.com",
    "store_type": "supermarket",
    "latitude": null,
    "longitude": null,
    "id": "689246b33cde9f63295db51b",
    "created_date": "2025-08-05T18:00:19.901000",
    "updated_date": "2025-08-05T18:00:19.901000",
    "created_by_id": "688f2ccb192c06d06024420a",
    "created_by": "zubair_zm@hotmail.com",
    "is_sample": false
  },
  {
    "name": "Morrisons",
    "chain": "Morrisons",
    "address": "Nationwide",
    "city": "Bradford",
    "country": "United Kingdom",
    "phone": null,
    "website": "https://groceries.morrisons.com",
    "store_type": "supermarket",
    "latitude": null,
    "longitude": null,
    "id": "689246b33cde9f63295db4fb",
    "created_date": "2025-08-05T18:00:19.900000",
    "updated_date": "2025-08-05T18:00:19.900000",
    "created_by_id": "688f2ccb192c06d06024420a",
    "created_by": "zubair_zm@hotmail.com",
    "is_sample": false
  },
  {
    "name": "Walmart",
    "chain": "Walmart",
    "address": "Nationwide",
    "city": "Bentonville",
    "country": "United States",
    "phone": null,
    "website": "https://www.walmart.com",
    "store_type": "supermarket",
    "latitude": null,
    "longitude": null,
    "id": "689246b33cde9f63295db4ee",
    "created_date": "2025-08-05T18:00:19.900000",
    "updated_date": "2025-08-05T18:00:19.900000",
    "created_by_id": "688f2ccb192c06d06024420a",
    "created_by": "zubair_zm@hotmail.com",
    "is_sample": false
  },
  {
    "name": "Sobeys",
    "chain": "Sobeys",
    "address": "Nationwide",
    "city": "Stellarton",
    "country": "Canada",
    "phone": null,
    "website": "https://www.sobeys.com",
    "store_type": "supermarket",
    "latitude": null,
    "longitude": null,
    "id": "689246b33cde9f63295db4f6",
    "created_date": "2025-08-05T18:00:19.900000",
    "updated_date": "2025-08-05T18:00:19.900000",
    "created_by_id": "688f2ccb192c06d06024420a",
    "created_by": "zubair_zm@hotmail.com",
    "is_sample": false
  },
  {
    "name": "Aldi",
    "chain": "Aldi",
    "address": "Nationwide",
    "city": "Atherstone",
    "country": "United Kingdom",
    "phone": null,
    "website": "https://www.aldi.co.uk",
    "store_type": "supermarket",
    "latitude": null,
    "longitude": null,
    "id": "689246b33cde9f63295db4fc",
    "created_date": "2025-08-05T18:00:19.900000",
    "updated_date": "2025-08-05T18:00:19.900000",
    "created_by_id": "688f2ccb192c06d06024420a",
    "created_by": "zubair_zm@hotmail.com",
    "is_sample": false
  },
  {
    "name": "Shoprite",
    "chain": "Shoprite",
    "address": "Nationwide",
    "city": "Cape Town",
    "country": "South Africa",
    "phone": null,
    "website": "https://www.shoprite.co.za",
    "store_type": "supermarket",
    "latitude": null,
    "longitude": null,
    "id": "689246b33cde9f63295db510",
    "created_date": "2025-08-05T18:00:19.901000",
    "updated_date": "2025-08-05T18:00:19.901000",
    "created_by_id": "688f2ccb192c06d06024420a",
    "created_by": "zubair_zm@hotmail.com",
    "is_sample": false
  },
  {
    "name": "Metro",
    "chain": "Metro",
    "address": "Nationwide",
    "city": "Montreal",
    "country": "Canada",
    "phone": null,
    "website": "https://www.metro.ca",
    "store_type": "supermarket",
    "latitude": null,
    "longitude": null,
    "id": "689246b33cde9f63295db4f7",
    "created_date": "2025-08-05T18:00:19.900000",
    "updated_date": "2025-08-05T18:00:19.900000",
    "created_by_id": "688f2ccb192c06d06024420a",
    "created_by": "zubair_zm@hotmail.com",
    "is_sample": false
  },
  {
    "name": "Tesco",
    "chain": "Tesco",
    "address": "Nationwide",
    "city": "London",
    "country": "United Kingdom",
    "phone": null,
    "website": "https://www.tesco.com",
    "store_type": "supermarket",
    "latitude": null,
    "longitude": null,
    "id": "689246b33cde9f63295db4f8",
    "created_date": "2025-08-05T18:00:19.900000",
    "updated_date": "2025-08-05T18:00:19.900000",
    "created_by_id": "688f2ccb192c06d06024420a",
    "created_by": "zubair_zm@hotmail.com",
    "is_sample": false
  },
  {
    "name": "Sainsbury's",
    "chain": "Sainsbury's",
    "address": "Nationwide",
    "city": "London",
    "country": "United Kingdom",
    "phone": null,
    "website": "https://www.sainsburys.co.uk",
    "store_type": "supermarket",
    "latitude": null,
    "longitude": null,
    "id": "689246b33cde9f63295db4f9",
    "created_date": "2025-08-05T18:00:19.900000",
    "updated_date": "2025-08-05T18:00:19.900000",
    "created_by_id": "688f2ccb192c06d06024420a",
    "created_by": "zubair_zm@hotmail.com",
    "is_sample": false
  },
  {
    "name": "Asda",
    "chain": "Asda",
    "address": "Nationwide",
    "city": "Leeds",
    "country": "United Kingdom",
    "phone": null,
    "website": "https://www.asda.com",
    "store_type": "supermarket",
    "latitude": null,
    "longitude": null,
    "id": "689246b33cde9f63295db4fa",
    "created_date": "2025-08-05T18:00:19.900000",
    "updated_date": "2025-08-05T18:00:19.900000",
    "created_by_id": "688f2ccb192c06d06024420a",
    "created_by": "zubair_zm@hotmail.com",
    "is_sample": false
  },
  {
    "name": "Conad",
    "chain": "Conad",
    "address": "Nationwide",
    "city": "Bologna",
    "country": "Italy",
    "phone": null,
    "website": "https://www.conad.it",
    "store_type": "supermarket",
    "latitude": null,
    "longitude": null,
    "id": "689246b33cde9f63295db509",
    "created_date": "2025-08-05T18:00:19.901000",
    "updated_date": "2025-08-05T18:00:19.901000",
    "created_by_id": "688f2ccb192c06d06024420a",
    "created_by": "zubair_zm@hotmail.com",
    "is_sample": false
  },
  {
    "name": "Carrefour Brasil",
    "chain": "Carrefour",
    "address": "Nationwide",
    "city": "São Paulo",
    "country": "Brazil",
    "phone": null,
    "website": "https://www.carrefour.com.br",
    "store_type": "supermarket",
    "latitude": null,
    "longitude": null,
    "id": "689246b33cde9f63295db50c",
    "created_date": "2025-08-05T18:00:19.901000",
    "updated_date": "2025-08-05T18:00:19.901000",
    "created_by_id": "688f2ccb192c06d06024420a",
    "created_by": "zubair_zm@hotmail.com",
    "is_sample": false
  },
  {
    "name": "Lotte Mart",
    "chain": "Lotte Mart",
    "address": "Nationwide",
    "city": "Seoul",
    "country": "South Korea",
    "phone": null,
    "website": "https://www.lottemart.com",
    "store_type": "supermarket",
    "latitude": null,
    "longitude": null,
    "id": "689246b33cde9f63295db51c",
    "created_date": "2025-08-05T18:00:19.901000",
    "updated_date": "2025-08-05T18:00:19.901000",
    "created_by_id": "688f2ccb192c06d06024420a",
    "created_by": "zubair_zm@hotmail.com",
    "is_sample": false
  },
  {
    "name": "Carrefour",
    "chain": "Carrefour",
    "address": "Nationwide",
    "city": "Paris",
    "country": "France",
    "phone": null,
    "website": "https://www.carrefour.fr",
    "store_type": "supermarket",
    "latitude": null,
    "longitude": null,
    "id": "689246b33cde9f63295db4fe",
    "created_date": "2025-08-05T18:00:19.901000",
    "updated_date": "2025-08-05T18:00:19.901000",
    "created_by_id": "688f2ccb192c06d06024420a",
    "created_by": "zubair_zm@hotmail.com",
    "is_sample": false
  },
  {
    "name": "Cencosud",
    "chain": "Cencosud",
    "address": "Nationwide",
    "city": "Santiago",
    "country": "Chile",
    "phone": null,
    "website": "https://www.cencosud.com",
    "store_type": "supermarket",
    "latitude": null,
    "longitude": null,
    "id": "689246b33cde9f63295db51e",
    "created_date": "2025-08-05T18:00:19.901000",
    "updated_date": "2025-08-05T18:00:19.901000",
    "created_by_id": "688f2ccb192c06d06024420a",
    "created_by": "zubair_zm@hotmail.com",
    "is_sample": false
  },
  {
    "name": "Pão de Açúcar",
    "chain": "GPA",
    "address": "Nationwide",
    "city": "São Paulo",
    "country": "Brazil",
    "phone": null,
    "website": "https://www.paodeacucar.com",
    "store_type": "supermarket",
    "latitude": null,
    "longitude": null,
    "id": "689246b33cde9f63295db50d",
    "created_date": "2025-08-05T18:00:19.901000",
    "updated_date": "2025-08-05T18:00:19.901000",
    "created_by_id": "688f2ccb192c06d06024420a",
    "created_by": "zubair_zm@hotmail.com",
    "is_sample": false
  },
  {
    "name": "Biedronka",
    "chain": "Biedronka",
    "address": "Nationwide",
    "city": "Warsaw",
    "country": "Poland",
    "phone": null,
    "website": "https://www.biedronka.pl",
    "store_type": "supermarket",
    "latitude": null,
    "longitude": null,
    "id": "689246b33cde9f63295db51a",
    "created_date": "2025-08-05T18:00:19.901000",
    "updated_date": "2025-08-05T18:00:19.901000",
    "created_by_id": "688f2ccb192c06d06024420a",
    "created_by": "zubair_zm@hotmail.com",
    "is_sample": false
  },
  {
    "name": "Publix",
    "chain": "Publix",
    "address": "Southeastern USA",
    "city": "Lakeland",
    "country": "United States",
    "phone": null,
    "website": "https://www.publix.com",
    "store_type": "supermarket",
    "latitude": null,
    "longitude": null,
    "id": "689246b33cde9f63295db4f3",
    "created_date": "2025-08-05T18:00:19.900000",
    "updated_date": "2025-08-05T18:00:19.900000",
    "created_by_id": "688f2ccb192c06d06024420a",
    "created_by": "zubair_zm@hotmail.com",
    "is_sample": false
  },
  {
    "name": "Mercadona",
    "chain": "Mercadona",
    "address": "Nationwide",
    "city": "Valencia",
    "country": "Spain",
    "phone": null,
    "website": "https://www.mercadona.es",
    "store_type": "supermarket",
    "latitude": null,
    "longitude": null,
    "id": "689246b33cde9f63295db507",
    "created_date": "2025-08-05T18:00:19.901000",
    "updated_date": "2025-08-05T18:00:19.901000",
    "created_by_id": "688f2ccb192c06d06024420a",
    "created_by": "zubair_zm@hotmail.com",
    "is_sample": false
  },
  {
    "name": "Migros",
    "chain": "Migros",
    "address": "Nationwide",
    "city": "Zurich",
    "country": "Switzerland",
    "phone": null,
    "website": "https://www.migros.ch",
    "store_type": "supermarket",
    "latitude": null,
    "longitude": null,
    "id": "689246b33cde9f63295db519",
    "created_date": "2025-08-05T18:00:19.901000",
    "updated_date": "2025-08-05T18:00:19.901000",
    "created_by_id": "688f2ccb192c06d06024420a",
    "created_by": "zubair_zm@hotmail.com",
    "is_sample": false
  },
  {
    "name": "Oxxo",
    "chain": "Oxxo",
    "address": "Nationwide",
    "city": "Monterrey",
    "country": "Mexico",
    "phone": null,
    "website": "https://www.oxxo.com",
    "store_type": "supermarket",
    "latitude": null,
    "longitude": null,
    "id": "689246b33cde9f63295db512",
    "created_date": "2025-08-05T18:00:19.901000",
    "updated_date": "2025-08-05T18:00:19.901000",
    "created_by_id": "688f2ccb192c06d06024420a",
    "created_by": "zubair_zm@hotmail.com",
    "is_sample": false
  },
  {
    "name": "Loblaws",
    "chain": "Loblaws",
    "address": "Nationwide",
    "city": "Toronto",
    "country": "Canada",
    "phone": null,
    "website": "https://www.loblaws.ca",
    "store_type": "supermarket",
    "latitude": null,
    "longitude": null,
    "id": "689246b33cde9f63295db4f5",
    "created_date": "2025-08-05T18:00:19.900000",
    "updated_date": "2025-08-05T18:00:19.900000",
    "created_by_id": "688f2ccb192c06d06024420a",
    "created_by": "zubair_zm@hotmail.com",
    "is_sample": false
  },
  {
    "name": "SPAR",
    "chain": "SPAR",
    "address": "International",
    "city": "Amsterdam",
    "country": "Netherlands",
    "phone": null,
    "website": "https://spar-international.com",
    "store_type": "supermarket",
    "latitude": null,
    "longitude": null,
    "id": "689246b33cde9f63295db520",
    "created_date": "2025-08-05T18:00:19.901000",
    "updated_date": "2025-08-05T18:00:19.901000",
    "created_by_id": "688f2ccb192c06d06024420a",
    "created_by": "zubair_zm@hotmail.com",
    "is_sample": false
  },
  {
    "name": "Woolworths",
    "chain": "Woolworths",
    "address": "Nationwide",
    "city": "Sydney",
    "country": "Australia",
    "phone": null,
    "website": "https://www.woolworths.com.au",
    "store_type": "supermarket",
    "latitude": null,
    "longitude": null,
    "id": "689246b33cde9f63295db504",
    "created_date": "2025-08-05T18:00:19.901000",
    "updated_date": "2025-08-05T18:00:19.901000",
    "created_by_id": "688f2ccb192c06d06024420a",
    "created_by": "zubair_zm@hotmail.com",
    "is_sample": false
  },
  {
    "name": "Coop",
    "chain": "Coop",
    "address": "Nationwide",
    "city": "Rome",
    "country": "Italy",
    "phone": null,
    "website": "https://www.coop.it",
    "store_type": "supermarket",
    "latitude": null,
    "longitude": null,
    "id": "689246b33cde9f63295db508",
    "created_date": "2025-08-05T18:00:19.901000",
    "updated_date": "2025-08-05T18:00:19.901000",
    "created_by_id": "688f2ccb192c06d06024420a",
    "created_by": "zubair_zm@hotmail.com",
    "is_sample": false
  },
  {
    "name": "Pyaterochka",
    "chain": "X5 Retail Group",
    "address": "Nationwide",
    "city": "Moscow",
    "country": "Russia",
    "phone": null,
    "website": "https://5ka.ru",
    "store_type": "supermarket",
    "latitude": null,
    "longitude": null,
    "id": "689246b33cde9f63295db515",
    "created_date": "2025-08-05T18:00:19.901000",
    "updated_date": "2025-08-05T18:00:19.901000",
    "created_by_id": "688f2ccb192c06d06024420a",
    "created_by": "zubair_zm@hotmail.com",
    "is_sample": false
  },
  {
    "name": "Target",
    "chain": "Target",
    "address": "Nationwide",
    "city": "Minneapolis",
    "country": "United States",
    "phone": null,
    "website": "https://www.target.com",
    "store_type": "supermarket",
    "latitude": null,
    "longitude": null,
    "id": "689246b33cde9f63295db4f1",
    "created_date": "2025-08-05T18:00:19.900000",
    "updated_date": "2025-08-05T18:00:19.900000",
    "created_by_id": "688f2ccb192c06d06024420a",
    "created_by": "zubair_zm@hotmail.com",
    "is_sample": false
  },
  {
    "name": "Reliance Fresh",
    "chain": "Reliance Retail",
    "address": "Nationwide",
    "city": "Mumbai",
    "country": "India",
    "phone": null,
    "website": "https://www.relianceretail.com/reliancefresh.html",
    "store_type": "supermarket",
    "latitude": null,
    "longitude": null,
    "id": "689246b33cde9f63295db50e",
    "created_date": "2025-08-05T18:00:19.901000",
    "updated_date": "2025-08-05T18:00:19.901000",
    "created_by_id": "688f2ccb192c06d06024420a",
    "created_by": "zubair_zm@hotmail.com",
    "is_sample": false
  },
  {
    "name": "E.Leclerc",
    "chain": "E.Leclerc",
    "address": "Nationwide",
    "city": "Ivry-sur-Seine",
    "country": "France",
    "phone": null,
    "website": "https://www.e.leclerc",
    "store_type": "supermarket",
    "latitude": null,
    "longitude": null,
    "id": "689246b33cde9f63295db500",
    "created_date": "2025-08-05T18:00:19.901000",
    "updated_date": "2025-08-05T18:00:19.901000",
    "created_by_id": "688f2ccb192c06d06024420a",
    "created_by": "zubair_zm@hotmail.com",
    "is_sample": false
  },
  {
    "name": "Falabella",
    "chain": "Falabella",
    "address": "Nationwide",
    "city": "Santiago",
    "country": "Chile",
    "phone": null,
    "website": "https://www.falabella.com",
    "store_type": "supermarket",
    "latitude": null,
    "longitude": null,
    "id": "689246b33cde9f63295db51f",
    "created_date": "2025-08-05T18:00:19.901000",
    "updated_date": "2025-08-05T18:00:19.901000",
    "created_by_id": "688f2ccb192c06d06024420a",
    "created_by": "zubair_zm@hotmail.com",
    "is_sample": false
  },
  {
    "name": "Soriana",
    "chain": "Soriana",
    "address": "Nationwide",
    "city": "Monterrey",
    "country": "Mexico",
    "phone": null,
    "website": "https://www.soriana.com",
    "store_type": "supermarket",
    "latitude": null,
    "longitude": null,
    "id": "689246b33cde9f63295db513",
    "created_date": "2025-08-05T18:00:19.901000",
    "updated_date": "2025-08-05T18:00:19.901000",
    "created_by_id": "688f2ccb192c06d06024420a",
    "created_by": "zubair_zm@hotmail.com",
    "is_sample": false
  },
  {
    "name": "Magnit",
    "chain": "Magnit",
    "address": "Nationwide",
    "city": "Krasnodar",
    "country": "Russia",
    "phone": null,
    "website": "https://www.magnit.com",
    "store_type": "supermarket",
    "latitude": null,
    "longitude": null,
    "id": "689246b33cde9f63295db514",
    "created_date": "2025-08-05T18:00:19.901000",
    "updated_date": "2025-08-05T18:00:19.901000",
    "created_by_id": "688f2ccb192c06d06024420a",
    "created_by": "zubair_zm@hotmail.com",
    "is_sample": false
  },
  {
    "name": "Ito-Yokado",
    "chain": "Ito-Yokado",
    "address": "Nationwide",
    "city": "Tokyo",
    "country": "Japan",
    "phone": null,
    "website": "https://www.itoyokado.co.jp",
    "store_type": "supermarket",
    "latitude": null,
    "longitude": null,
    "id": "689246b33cde9f63295db50b",
    "created_date": "2025-08-05T18:00:19.901000",
    "updated_date": "2025-08-05T18:00:19.901000",
    "created_by_id": "688f2ccb192c06d06024420a",
    "created_by": "zubair_zm@hotmail.com",
    "is_sample": false
  },
  {
    "name": "IGA",
    "chain": "IGA",
    "address": "Nationwide",
    "city": "Macquarie Park",
    "country": "Australia",
    "phone": null,
    "website": "https://www.iga.com.au",
    "store_type": "supermarket",
    "latitude": null,
    "longitude": null,
    "id": "689246b33cde9f63295db506",
    "created_date": "2025-08-05T18:00:19.901000",
    "updated_date": "2025-08-05T18:00:19.901000",
    "created_by_id": "688f2ccb192c06d06024420a",
    "created_by": "zubair_zm@hotmail.com",
    "is_sample": false
  },
  {
    "name": "Denner",
    "chain": "Denner",
    "address": "Tödistrasse 48",
    "city": "Zurich",
    "country": "Switzerland",
    "phone": "+41 58 334 44 44",
    "website": "https://www.denner.ch",
    "store_type": "supermarket",
    "latitude": null,
    "longitude": null,
    "id": "689267de56cea7a92a54e067",
    "created_date": "2025-08-05T20:21:50.511000",
    "updated_date": "2025-08-05T20:21:50.511000",
    "created_by_id": "688f2ccb192c06d06024420a",
    "created_by": "zubair_zm@hotmail.com",
    "is_sample": false
  },
  {
    "name": "Volg",
    "chain": "Volg",
    "address": "Industriestrasse 8",
    "city": "Winterthur",
    "country": "Switzerland",
    "phone": "+41 52 261 61 11",
    "website": "https://www.volg.ch",
    "store_type": "supermarket",
    "latitude": null,
    "longitude": null,
    "id": "689267de56cea7a92a54e06c",
    "created_date": "2025-08-05T20:21:50.511000",
    "updated_date": "2025-08-05T20:21:50.511000",
    "created_by_id": "688f2ccb192c06d06024420a",
    "created_by": "zubair_zm@hotmail.com",
    "is_sample": false
  },
  {
    "name": "Migros",
    "chain": "Migros",
    "address": "Limmatplatz 1",
    "city": "Zurich",
    "country": "Switzerland",
    "phone": "+41 58 570 20 00",
    "website": "https://www.migros.ch",
    "store_type": "supermarket",
    "latitude": null,
    "longitude": null,
    "id": "689267de56cea7a92a54e065",
    "created_date": "2025-08-05T20:21:50.511000",
    "updated_date": "2025-08-05T20:21:50.511000",
    "created_by_id": "688f2ccb192c06d06024420a",
    "created_by": "zubair_zm@hotmail.com",
    "is_sample": false
  },
  {
    "name": "Aldi Suisse",
    "chain": "Aldi",
    "address": "Chemin de Blandonnet 8",
    "city": "Geneva",
    "country": "Switzerland",
    "phone": "+41 58 958 80 00",
    "website": "https://www.aldi-suisse.ch",
    "store_type": "supermarket",
    "latitude": null,
    "longitude": null,
    "id": "689267de56cea7a92a54e068",
    "created_date": "2025-08-05T20:21:50.511000",
    "updated_date": "2025-08-05T20:21:50.511000",
    "created_by_id": "688f2ccb192c06d06024420a",
    "created_by": "zubair_zm@hotmail.com",
    "is_sample": false
  },
  {
    "name": "Manor Food",
    "chain": "Manor",
    "address": "Rue de Cornavin 6",
    "city": "Geneva",
    "country": "Switzerland",
    "phone": "+41 22 909 48 00",
    "website": "https://www.manor.ch/fr",
    "store_type": "supermarket",
    "latitude": null,
    "longitude": null,
    "id": "689267de56cea7a92a54e06a",
    "created_date": "2025-08-05T20:21:50.511000",
    "updated_date": "2025-08-07T12:46:26.659000",
    "created_by_id": "688f2ccb192c06d06024420a",
    "created_by": "zubair_zm@hotmail.com",
    "is_sample": false
  },
  {
    "name": "Spar",
    "chain": "Spar",
    "address": "Bahnhofstrasse 15",
    "city": "St. Gallen",
    "country": "Switzerland",
    "phone": "+41 71 227 60 00",
    "website": "https://www.spar.ch",
    "store_type": "supermarket",
    "latitude": null,
    "longitude": null,
    "id": "689267de56cea7a92a54e06b",
    "created_date": "2025-08-05T20:21:50.511000",
    "updated_date": "2025-08-05T20:21:50.511000",
    "created_by_id": "688f2ccb192c06d06024420a",
    "created_by": "zubair_zm@hotmail.com",
    "is_sample": false
  },
  {
    "name": "Coop",
    "chain": "Coop",
    "address": "Thiersteinerallee 14",
    "city": "Basel",
    "country": "Switzerland",
    "phone": "+41 61 336 66 66",
    "website": "https://www.coop.ch",
    "store_type": "supermarket",
    "latitude": null,
    "longitude": null,
    "id": "689267de56cea7a92a54e066",
    "created_date": "2025-08-05T20:21:50.511000",
    "updated_date": "2025-08-05T20:21:50.511000",
    "created_by_id": "688f2ccb192c06d06024420a",
    "created_by": "zubair_zm@hotmail.com",
    "is_sample": false
  },
  {
    "name": "Globus Delicatessa",
    "chain": "Globus",
    "address": "Schweizergasse 11",
    "city": "Zurich",
    "country": "Switzerland",
    "phone": "+41 44 226 60 60",
    "website": "https://www.globus.ch",
    "store_type": "specialty_store",
    "latitude": null,
    "longitude": null,
    "id": "689267de56cea7a92a54e06d",
    "created_date": "2025-08-05T20:21:50.511000",
    "updated_date": "2025-08-05T20:21:50.511000",
    "created_by_id": "688f2ccb192c06d06024420a",
    "created_by": "zubair_zm@hotmail.com",
    "is_sample": false
  },
  {
    "name": "Käserei Einsiedeln",
    "chain": null,
    "address": "Klosterplatz 1",
    "city": "Einsiedeln",
    "country": "Switzerland",
    "phone": "+41 55 418 61 61",
    "website": "https://www.kaeserei-einsiedeln.ch",
    "store_type": "specialty_store",
    "latitude": null,
    "longitude": null,
    "id": "689267de56cea7a92a54e06e",
    "created_date": "2025-08-05T20:21:50.511000",
    "updated_date": "2025-08-05T20:21:50.511000",
    "created_by_id": "688f2ccb192c06d06024420a",
    "created_by": "zubair_zm@hotmail.com",
    "is_sample": false
  },
  {
    "name": "Lidl Schweiz",
    "chain": "Lidl",
    "address": "Industriestrasse 2",
    "city": "Weinfelden",
    "country": "Switzerland",
    "phone": "+41 71 627 82 00",
    "website": "https://www.lidl.ch",
    "store_type": "supermarket",
    "latitude": null,
    "longitude": null,
    "id": "689267de56cea7a92a54e069",
    "created_date": "2025-08-05T20:21:50.511000",
    "updated_date": "2025-08-05T20:21:50.511000",
    "created_by_id": "688f2ccb192c06d06024420a",
    "created_by": "zubair_zm@hotmail.com",
    "is_sample": false
  },
  {
    "name": "Safran de la Baie",
    "chain": null,
    "address": "Multiple locations",
    "city": "Various",
    "country": "Iran",
    "phone": null,
    "website": null,
    "store_type": "supermarché",
    "latitude": null,
    "longitude": null,
    "id": "6899775914e72e020a117242",
    "created_date": "2025-08-11T04:53:45.656000",
    "updated_date": "2025-08-11T04:53:45.656000",
    "created_by_id": "688f2ccb192c06d06024420a",
    "created_by": "zubair_zm@hotmail.com",
    "is_sample": false
  },
  {
    "name": "Safran des Sables Fauves",
    "chain": null,
    "address": "Multiple locations",
    "city": "Various",
    "country": "Iran",
    "phone": null,
    "website": null,
    "store_type": "épicerie_fine",
    "latitude": null,
    "longitude": null,
    "id": "6899775adcb30c1ab571e87f",
    "created_date": "2025-08-11T04:53:46.061000",
    "updated_date": "2025-08-11T04:53:46.061000",
    "created_by_id": "688f2ccb192c06d06024420a",
    "created_by": "zubair_zm@hotmail.com",
    "is_sample": false
  },
  {
    "name": "Carrefour, Leclerc",
    "chain": null,
    "address": "Multiple locations",
    "city": "Various",
    "country": "Grèce",
    "phone": null,
    "website": null,
    "store_type": "supermarché",
    "latitude": null,
    "longitude": null,
    "id": "689978ffbe6727838fdb8645",
    "created_date": "2025-08-11T05:00:47.046000",
    "updated_date": "2025-08-11T05:00:47.046000",
    "created_by_id": "688f2ccb192c06d06024420a",
    "created_by": "zubair_zm@hotmail.com",
    "is_sample": false
  },
  {
    "name": "Sublim'",
    "chain": null,
    "address": "Multiple locations",
    "city": "Various",
    "country": "France",
    "phone": null,
    "website": null,
    "store_type": "épicerie_fine",
    "latitude": null,
    "longitude": null,
    "id": "689979e182471178c41c1b7c",
    "created_date": "2025-08-11T05:04:33.357000",
    "updated_date": "2025-08-11T05:04:33.357000",
    "created_by_id": "688f2ccb192c06d06024420a",
    "created_by": "zubair_zm@hotmail.com",
    "is_sample": false
  },
  {
    "name": "Elle & Vire",
    "chain": null,
    "address": "Multiple locations",
    "city": "Various",
    "country": "France",
    "phone": null,
    "website": null,
    "store_type": "épicerie_fine",
    "latitude": null,
    "longitude": null,
    "id": "68997bdc39b4936b3455ca54",
    "created_date": "2025-08-11T05:13:00.274000",
    "updated_date": "2025-08-11T05:13:00.274000",
    "created_by_id": "688f2ccb192c06d06024420a",
    "created_by": "zubair_zm@hotmail.com",
    "is_sample": false
  },
  {
    "name": "Margarine Bio",
    "chain": null,
    "address": "Multiple locations",
    "city": "Various",
    "country": "France",
    "phone": null,
    "website": null,
    "store_type": "en_ligne",
    "latitude": null,
    "longitude": null,
    "id": "68997bdc876ac95428656f41",
    "created_date": "2025-08-11T05:13:00.720000",
    "updated_date": "2025-08-11T05:13:00.720000",
    "created_by_id": "688f2ccb192c06d06024420a",
    "created_by": "zubair_zm@hotmail.com",
    "is_sample": false
  },
  {
    "name": "Désiree",
    "chain": null,
    "address": "Multiple locations",
    "city": "Various",
    "country": "France",
    "phone": null,
    "website": null,
    "store_type": "supermarché",
    "latitude": null,
    "longitude": null,
    "id": "68997bdb2d39b3b48dc2beaf",
    "created_date": "2025-08-11T05:12:59.886000",
    "updated_date": "2025-08-11T05:12:59.886000",
    "created_by_id": "688f2ccb192c06d06024420a",
    "created_by": "zubair_zm@hotmail.com",
    "is_sample": false
  },
  {
    "name": "Boucherie du Terroir",
    "chain": null,
    "address": "Multiple locations",
    "city": "Various",
    "country": "France",
    "phone": null,
    "website": null,
    "store_type": "boucherie",
    "latitude": null,
    "longitude": null,
    "id": "68997deae3dc84cbd79c4b77",
    "created_date": "2025-08-11T05:21:46.529000",
    "updated_date": "2025-08-11T05:21:46.529000",
    "created_by_id": "688f2ccb192c06d06024420a",
    "created_by": "zubair_zm@hotmail.com",
    "is_sample": false
  },
  {
    "name": "Épicerie Gourmande",
    "chain": null,
    "address": "Multiple locations",
    "city": "Various",
    "country": "France",
    "phone": null,
    "website": null,
    "store_type": "épicerie_fine",
    "latitude": null,
    "longitude": null,
    "id": "68997dea491c2384f65e4ade",
    "created_date": "2025-08-11T05:21:46.889000",
    "updated_date": "2025-08-11T05:21:46.889000",
    "created_by_id": "688f2ccb192c06d06024420a",
    "created_by": "zubair_zm@hotmail.com",
    "is_sample": false
  },
  {
    "name": "Marque exemple",
    "chain": "Marque exemple",
    "address": "Adresse à définir",
    "city": "Ville à définir",
    "country": "Suisse",
    "phone": "",
    "website": "",
    "store_type": "supermarket",
    "latitude": null,
    "longitude": null,
    "id": "68998af3161fa8d087f41647",
    "created_date": "2025-08-11T06:17:23.355000",
    "updated_date": "2025-08-11T06:17:23.355000",
    "created_by_id": "688f2ccb192c06d06024420a",
    "created_by": "zubair_zm@hotmail.com",
    "is_sample": false
  },
  {
    "name": "Marque exemple",
    "chain": "Marque exemple",
    "address": "Adresse à définir",
    "city": "Ville à définir",
    "country": "France",
    "phone": "",
    "website": "",
    "store_type": "supermarket",
    "latitude": null,
    "longitude": null,
    "id": "68998c3fac48e38df708159e",
    "created_date": "2025-08-11T06:22:55.478000",
    "updated_date": "2025-08-11T06:22:55.478000",
    "created_by_id": "688f2ccb192c06d06024420a",
    "created_by": "zubair_zm@hotmail.com",
    "is_sample": false
  },
  {
    "name": "Marque exemple",
    "chain": "Marque exemple",
    "address": "Adresse à définir",
    "city": "Ville à définir",
    "country": "Inde",
    "phone": "",
    "website": "",
    "store_type": "supermarket",
    "latitude": null,
    "longitude": null,
    "id": "6899d235d7b05aef9dff6fd0",
    "created_date": "2025-08-11T11:21:25.310000",
    "updated_date": "2025-08-11T11:21:25.310000",
    "created_by_id": "688f2ccb192c06d06024420a",
    "created_by": "zubair_zm@hotmail.com",
    "is_sample": false
  },
  {
    "name": "Marque exemple",
    "chain": "Marque exemple",
    "address": "Adresse à définir",
    "city": "Ville à définir",
    "country": "France",
    "phone": "",
    "website": "",
    "store_type": "supermarket",
    "latitude": null,
    "longitude": null,
    "id": "689a141a95292ecf0717ef86",
    "created_date": "2025-08-11T16:02:34.502000",
    "updated_date": "2025-08-11T16:02:34.502000",
    "created_by_id": "688f2ccb192c06d06024420a",
    "created_by": "zubair_zm@hotmail.com",
    "is_sample": false
  },
  {
    "name": "Marque exemple",
    "chain": "Marque exemple",
    "address": "Adresse à définir",
    "city": "Ville à définir",
    "country": "France",
    "phone": "",
    "website": "",
    "store_type": "supermarket",
    "latitude": null,
    "longitude": null,
    "id": "689a193fb7dde526a0005063",
    "created_date": "2025-08-11T16:24:31.892000",
    "updated_date": "2025-08-11T16:24:31.892000",
    "created_by_id": "688f2ccb192c06d06024420a",
    "created_by": "zubair_zm@hotmail.com",
    "is_sample": false
  },
  {
    "name": "Marque exemple",
    "chain": "Marque exemple",
    "address": "Adresse à définir",
    "city": "Ville à définir",
    "country": "France",
    "phone": "",
    "website": "",
    "store_type": "supermarket",
    "latitude": null,
    "longitude": null,
    "id": "689a1b6bc47dcb7c14d1b132",
    "created_date": "2025-08-11T16:33:47.689000",
    "updated_date": "2025-08-11T16:33:47.689000",
    "created_by_id": "688f2ccb192c06d06024420a",
    "created_by": "zubair_zm@hotmail.com",
    "is_sample": false
  },
  {
    "name": "Marque exemple",
    "chain": "Marque exemple",
    "address": "Adresse à définir",
    "city": "Ville à définir",
    "country": "Amérique centrale",
    "phone": null,
    "website": null,
    "store_type": "supermarket",
    "latitude": null,
    "longitude": null,
    "id": "689a1cbbdb5bc157baeffc72",
    "created_date": "2025-08-11T16:39:23.215000",
    "updated_date": "2025-08-11T16:39:23.215000",
    "created_by_id": "688f2ccb192c06d06024420a",
    "created_by": "zubair_zm@hotmail.com",
    "is_sample": false
  },
  {
    "name": "Marque exemple",
    "chain": "Marque exemple",
    "address": "Adresse à définir",
    "city": "Ville à définir",
    "country": "France",
    "phone": "",
    "website": "",
    "store_type": "supermarket",
    "latitude": null,
    "longitude": null,
    "id": "689a1d5bdc08744d62c53dfd",
    "created_date": "2025-08-11T16:42:03.039000",
    "updated_date": "2025-08-11T16:42:03.039000",
    "created_by_id": "688f2ccb192c06d06024420a",
    "created_by": "zubair_zm@hotmail.com",
    "is_sample": false
  },
  {
    "name": "Marque exemple",
    "chain": "Marque exemple",
    "address": "Adresse à définir",
    "city": "Ville à définir",
    "country": "Grèce",
    "phone": null,
    "website": null,
    "store_type": "supermarket",
    "latitude": null,
    "longitude": null,
    "id": "689a201249fc33547e68de97",
    "created_date": "2025-08-11T16:53:38.862000",
    "updated_date": "2025-08-11T16:53:38.862000",
    "created_by_id": "688f2ccb192c06d06024420a",
    "created_by": "zubair_zm@hotmail.com",
    "is_sample": false
  },
  {
    "name": "Marque exemple",
    "chain": "Marque exemple",
    "address": "Adresse à définir",
    "city": "Ville à définir",
    "country": "Grèce",
    "phone": null,
    "website": null,
    "store_type": "supermarket",
    "latitude": null,
    "longitude": null,
    "id": "689a207446c2743e816ef07d",
    "created_date": "2025-08-11T16:55:16.990000",
    "updated_date": "2025-08-11T16:55:16.990000",
    "created_by_id": "688f2ccb192c06d06024420a",
    "created_by": "zubair_zm@hotmail.com",
    "is_sample": false
  },
  {
    "name": "Marque exemple",
    "chain": "Marque exemple",
    "address": "Adresse à définir",
    "city": "Ville à définir",
    "country": "France",
    "phone": "",
    "website": "",
    "store_type": "supermarket",
    "latitude": null,
    "longitude": null,
    "id": "689a20c445aa98b24a3a6622",
    "created_date": "2025-08-11T16:56:36.446000",
    "updated_date": "2025-08-11T16:56:36.446000",
    "created_by_id": "688f2ccb192c06d06024420a",
    "created_by": "zubair_zm@hotmail.com",
    "is_sample": false
  },
  {
    "name": "Marque exemple",
    "chain": "Marque exemple",
    "address": "Adresse à définir",
    "city": "Ville à définir",
    "country": "Suisse",
    "phone": "",
    "website": "",
    "store_type": "supermarket",
    "latitude": null,
    "longitude": null,
    "id": "689a20ede13b982e07e2c005",
    "created_date": "2025-08-11T16:57:17.488000",
    "updated_date": "2025-08-11T16:57:17.488000",
    "created_by_id": "688f2ccb192c06d06024420a",
    "created_by": "zubair_zm@hotmail.com",
    "is_sample": false
  },
  {
    "name": "Marque exemple",
    "chain": "Marque exemple",
    "address": "Adresse à définir",
    "city": "Ville à définir",
    "country": "Divers pays",
    "phone": null,
    "website": null,
    "store_type": "supermarket",
    "latitude": null,
    "longitude": null,
    "id": "689a2220bd9c939c0688f6aa",
    "created_date": "2025-08-11T17:02:24.010000",
    "updated_date": "2025-08-11T17:02:24.010000",
    "created_by_id": "688f2ccb192c06d06024420a",
    "created_by": "zubair_zm@hotmail.com",
    "is_sample": false
  },
  {
    "name": "Marque exemple",
    "chain": "Marque exemple",
    "address": "Adresse à définir",
    "city": "Ville à définir",
    "country": "Grèce",
    "phone": null,
    "website": null,
    "store_type": "supermarket",
    "latitude": null,
    "longitude": null,
    "id": "689a22685ab69f2ded6a4858",
    "created_date": "2025-08-11T17:03:36.200000",
    "updated_date": "2025-08-11T17:03:36.200000",
    "created_by_id": "688f2ccb192c06d06024420a",
    "created_by": "zubair_zm@hotmail.com",
    "is_sample": false
  },
  {
    "name": "Marque exemple",
    "chain": "Marque exemple",
    "address": "Adresse à définir",
    "city": "Ville à définir",
    "country": "Divers pays",
    "phone": null,
    "website": null,
    "store_type": "supermarket",
    "latitude": null,
    "longitude": null,
    "id": "689a234f49fc33547e68feef",
    "created_date": "2025-08-11T17:07:27.605000",
    "updated_date": "2025-08-11T17:07:27.605000",
    "created_by_id": "688f2ccb192c06d06024420a",
    "created_by": "zubair_zm@hotmail.com",
    "is_sample": false
  },
  {
    "name": "Marque exemple",
    "chain": "Marque exemple",
    "address": "Adresse à définir",
    "city": "Ville à définir",
    "country": "Grèce",
    "phone": null,
    "website": null,
    "store_type": "supermarket",
    "latitude": null,
    "longitude": null,
    "id": "689a24b3db5bc157baf0155b",
    "created_date": "2025-08-11T17:13:23.302000",
    "updated_date": "2025-08-11T17:13:23.302000",
    "created_by_id": "688f2ccb192c06d06024420a",
    "created_by": "zubair_zm@hotmail.com",
    "is_sample": false
  },
  {
    "name": "Marque exemple",
    "chain": "Marque exemple",
    "address": "Adresse à définir",
    "city": "Ville à définir",
    "country": "Grèce",
    "phone": null,
    "website": null,
    "store_type": "supermarket",
    "latitude": null,
    "longitude": null,
    "id": "689a24d7ff60c03e000b5ed4",
    "created_date": "2025-08-11T17:13:59.088000",
    "updated_date": "2025-08-11T17:13:59.088000",
    "created_by_id": "688f2ccb192c06d06024420a",
    "created_by": "zubair_zm@hotmail.com",
    "is_sample": false
  },
  {
    "name": "Marque exemple",
    "chain": "Marque exemple",
    "address": "Adresse à définir",
    "city": "Ville à définir",
    "country": "France",
    "phone": null,
    "website": null,
    "store_type": "supermarket",
    "latitude": null,
    "longitude": null,
    "id": "689a263f732942903c7f162e",
    "created_date": "2025-08-11T17:19:59.731000",
    "updated_date": "2025-08-11T17:19:59.731000",
    "created_by_id": "688f2ccb192c06d06024420a",
    "created_by": "zubair_zm@hotmail.com",
    "is_sample": false
  },
  {
    "name": "Marque exemple",
    "chain": "Marque exemple",
    "address": "Adresse à définir",
    "city": "Ville à définir",
    "country": "Kazakhstan",
    "phone": null,
    "website": null,
    "store_type": "supermarket",
    "latitude": null,
    "longitude": null,
    "id": "689a26a9a2ac50decb32d41a",
    "created_date": "2025-08-11T17:21:45.757000",
    "updated_date": "2025-08-11T17:21:45.757000",
    "created_by_id": "688f2ccb192c06d06024420a",
    "created_by": "zubair_zm@hotmail.com",
    "is_sample": false
  },
  {
    "name": "Marque exemple",
    "chain": "Marque exemple",
    "address": "Adresse à définir",
    "city": "Ville à définir",
    "country": "Pérou",
    "phone": null,
    "website": null,
    "store_type": "supermarket",
    "latitude": null,
    "longitude": null,
    "id": "689a2793a2ac50decb32de3e",
    "created_date": "2025-08-11T17:25:39.107000",
    "updated_date": "2025-08-11T17:25:39.107000",
    "created_by_id": "688f2ccb192c06d06024420a",
    "created_by": "zubair_zm@hotmail.com",
    "is_sample": false
  },
  {
    "name": "Marque exemple",
    "chain": "Marque exemple",
    "address": "Adresse à définir",
    "city": "Ville à définir",
    "country": "France",
    "phone": null,
    "website": null,
    "store_type": "supermarket",
    "latitude": null,
    "longitude": null,
    "id": "689a29260bebe58e23bf1e8f",
    "created_date": "2025-08-11T17:32:22.571000",
    "updated_date": "2025-08-11T17:32:22.571000",
    "created_by_id": "688f2ccb192c06d06024420a",
    "created_by": "zubair_zm@hotmail.com",
    "is_sample": false
  },
  {
    "name": "Marque exemple",
    "chain": "Marque exemple",
    "address": "Adresse à définir",
    "city": "Ville à définir",
    "country": "France",
    "phone": null,
    "website": null,
    "store_type": "supermarket",
    "latitude": null,
    "longitude": null,
    "id": "689a297fa0c6a72a41d55d04",
    "created_date": "2025-08-11T17:33:51.190000",
    "updated_date": "2025-08-11T17:33:51.190000",
    "created_by_id": "688f2ccb192c06d06024420a",
    "created_by": "zubair_zm@hotmail.com",
    "is_sample": false
  },
  {
    "name": "Marque exemple",
    "chain": "Supermarché",
    "address": "123 Rue Example",
    "city": "Paris",
    "country": "Monde entier",
    "phone": null,
    "website": null,
    "store_type": "supermarket",
    "latitude": null,
    "longitude": null,
    "id": "689a2b3495292ecf07189873",
    "created_date": "2025-08-11T17:41:08.281000",
    "updated_date": "2025-08-11T17:41:08.281000",
    "created_by_id": "688f2ccb192c06d06024420a",
    "created_by": "zubair_zm@hotmail.com",
    "is_sample": false
  },
  {
    "name": "Marque exemple",
    "chain": "Supermarché",
    "address": "123 Rue Example",
    "city": "Paris",
    "country": "Brésil",
    "phone": null,
    "website": null,
    "store_type": "supermarket",
    "latitude": null,
    "longitude": null,
    "id": "689a325ecbdaa3749092e5e6",
    "created_date": "2025-08-11T18:11:42.547000",
    "updated_date": "2025-08-11T18:11:42.547000",
    "created_by_id": "688f2ccb192c06d06024420a",
    "created_by": "zubair_zm@hotmail.com",
    "is_sample": false
  },
  {
    "name": "Dole",
    "chain": "Dole",
    "address": "Adresse à définir",
    "city": "Ville à définir",
    "country": "Brésil",
    "phone": null,
    "website": null,
    "store_type": "supermarket",
    "latitude": null,
    "longitude": null,
    "id": "689a3d01a2ac50decb33a7b3",
    "created_date": "2025-08-11T18:57:05.667000",
    "updated_date": "2025-08-11T18:57:05.667000",
    "created_by_id": "688f2ccb192c06d06024420a",
    "created_by": "zubair_zm@hotmail.com",
    "is_sample": false
  }
]